{"type":"FeatureCollection","features":[{"type":"Feature","geometry":{"type":"Point","coordinates":[38.77,8.87]},"properties":{"id":"aawsa-addis-ababa-source-3","utilityId":"aawsa-addis-ababa","utilityName":"Addis Ababa Water and Sewerage Authority","name":"Akaki wellfield","sourceType":"groundwater","sourceKind":"wellfield","iconId":"water-utility","sourceIndex":3}},{"type":"Feature","geometry":{"type":"Point","coordinates":[38.58,9.06]},"properties":{"id":"aawsa-addis-ababa-source-2","utilityId":"aawsa-addis-ababa","utilityName":"Addis Ababa Water and Sewerage Authority","name":"Gefersa Reservoir","sourceType":"surface","sourceKind":"reservoir","iconId":"water-utility","sourceIndex":2}},{"type":"Feature","geometry":{"type":"Point","coordinates":[38.93,9.12]},"properties":{"id":"aawsa-addis-ababa-source-1","utilityId":"aawsa-addis-ababa","utilityName":"Addis Ababa Water and Sewerage Authority","name":"Legedadi Reservoir","sourceType":"surface","sourceKind":"reservoir","iconId":"water-utility","sourceIndex":1}},{"type":"Feature","geometry":{"type":"Point","coordinates":[2.84,49.43]},"properties":{"id":"arc-compiegne-water-source-2","utilityId":"arc-compiegne-water","utilityName":"Agglomeration de la Region de Compiegne Water Service","name":"Oise alluvial aquifer","sourceType":"groundwater","sourceKind":"aquifer","iconId":"water-utility","sourceIndex":2}},{"type":"Feature","geometry":{"type":"Point","coordinates":[2.83,49.42]},"properties":{"id":"arc-compiegne-water-source-1","utilityId":"arc-compiegne-water","utilityName":"Agglomeration de la Region de Compiegne Water Service","name":"Oise River","sourceType":"surface","sourceKind":"river","iconId":"water-utility","sourceIndex":1}},{"type":"Feature","geometry":{"type":"Point","coordinates":[-58.88,-34.37]},"properties":{"id":"aysa-buenos-aires-source-3","utilityId":"aysa-buenos-aires","utilityName":"Agua y Saneamientos Argentinos (AySA)","name":"Parana de las Palmas intake corridor","sourceType":"surface","sourceKind":"river","iconId":"water-utility","sourceIndex":3}},{"type":"Feature","geometry":{"type":"Point","coordinates":[-58.58,-34.6]},"properties":{"id":"aysa-buenos-aires-source-2","utilityId":"aysa-buenos-aires","utilityName":"Agua y Saneamientos Argentinos (AySA)","name":"Puelche aquifer","sourceType":"groundwater","sourceKind":"aquifer","iconId":"water-utility","sourceIndex":2}},{"type":"Feature","geometry":{"type":"Point","coordinates":[-58.31,-34.52]},"properties":{"id":"aysa-buenos-aires-source-1","utilityId":"aysa-buenos-aires","utilityName":"Agua y Saneamientos Argentinos (AySA)","name":"Rio de la Plata intake","sourceType":"surface","sourceKind":"river estuary","iconId":"water-utility","sourceIndex":1}},{"type":"Feature","geometry":{"type":"Point","coordinates":[-101.02,25.42]},"properties":{"id":"aguas-de-saltillo-source-1","utilityId":"aguas-de-saltillo","utilityName":"Aguas de Saltillo","name":"Saltillo aquifer","sourceType":"groundwater","sourceKind":"aquifer","iconId":"water-utility","sourceIndex":1}},{"type":"Feature","geometry":{"type":"Point","coordinates":[-100.98,25.35]},"properties":{"id":"aguas-de-saltillo-source-2","utilityId":"aguas-de-saltillo","utilityName":"Aguas de Saltillo","name":"San Lorenzo Canyon recharge area","sourceType":"surface","sourceKind":"watershed","iconId":"water-utility","sourceIndex":2}},{"type":"Feature","geometry":{"type":"Point","coordinates":[-43.72,-22.79]},"properties":{"id":"aguas-do-rio-guandu-source-1","utilityId":"aguas-do-rio-guandu","utilityName":"Aguas do Rio / CEDAE Guandu System","name":"Guandu River","sourceType":"surface","sourceKind":"river","iconId":"water-utility","sourceIndex":1}},{"type":"Feature","geometry":{"type":"Point","coordinates":[-43.89,-22.68]},"properties":{"id":"aguas-do-rio-guandu-source-2","utilityId":"aguas-do-rio-guandu","utilityName":"Aguas do Rio / CEDAE Guandu System","name":"Ribeirao das Lajes Reservoir","sourceType":"surface","sourceKind":"reservoir","iconId":"water-utility","sourceIndex":2}},{"type":"Feature","geometry":{"type":"Point","coordinates":[72.54,23.02]},"properties":{"id":"ahmedabad-municipal-corporation-source-3","utilityId":"ahmedabad-municipal-corporation","utilityName":"Ahmedabad Municipal Corporation Water Supply","name":"Ahmedabad municipal wells","sourceType":"groundwater","sourceKind":"wellfield","iconId":"water-utility","sourceIndex":3}},{"type":"Feature","geometry":{"type":"Point","coordinates":[72.5,23.1]},"properties":{"id":"ahmedabad-municipal-corporation-source-1","utilityId":"ahmedabad-municipal-corporation","utilityName":"Ahmedabad Municipal Corporation Water Supply","name":"Narmada Canal","sourceType":"surface","sourceKind":"canal","iconId":"water-utility","sourceIndex":1}},{"type":"Feature","geometry":{"type":"Point","coordinates":[72.58,23.03]},"properties":{"id":"ahmedabad-municipal-corporation-source-2","utilityId":"ahmedabad-municipal-corporation","utilityName":"Ahmedabad Municipal Corporation Water Supply","name":"Sabarmati River","sourceType":"surface","sourceKind":"river","iconId":"water-utility","sourceIndex":2}},{"type":"Feature","geometry":{"type":"Point","coordinates":[-86.21,34.28]},"properties":{"id":"albertville-utilities-board-source-1","utilityId":"albertville-utilities-board","utilityName":"Albertville Utilities Board","name":"Albertville municipal wells","sourceType":"groundwater","sourceKind":"wellfield","iconId":"water-utility","sourceIndex":1}},{"type":"Feature","geometry":{"type":"Point","coordinates":[-86.23,34.29]},"properties":{"id":"albertville-utilities-board-source-2","utilityId":"albertville-utilities-board","utilityName":"Albertville Utilities Board","name":"Big Spring Creek area","sourceType":"surface","sourceKind":"creek","iconId":"water-utility","sourceIndex":2}},{"type":"Feature","geometry":{"type":"Point","coordinates":[-0.87,41.63]},"properties":{"id":"zaragoza-water-source-2","utilityId":"zaragoza-water","utilityName":"Ayuntamiento de Zaragoza Water Supply","name":"Canal Imperial de Aragon","sourceType":"surface","sourceKind":"canal","iconId":"water-utility","sourceIndex":2}},{"type":"Feature","geometry":{"type":"Point","coordinates":[-0.88,41.65]},"properties":{"id":"zaragoza-water-source-1","utilityId":"zaragoza-water","utilityName":"Ayuntamiento de Zaragoza Water Supply","name":"Ebro River","sourceType":"surface","sourceKind":"river","iconId":"water-utility","sourceIndex":1}},{"type":"Feature","geometry":{"type":"Point","coordinates":[-1.08,42.63]},"properties":{"id":"zaragoza-water-source-3","utilityId":"zaragoza-water","utilityName":"Ayuntamiento de Zaragoza Water Supply","name":"Yesa Reservoir system","sourceType":"surface","sourceKind":"reservoir","iconId":"water-utility","sourceIndex":3}},{"type":"Feature","geometry":{"type":"Point","coordinates":[77.6,12.97]},"properties":{"id":"bwssb-bengaluru-source-3","utilityId":"bwssb-bengaluru","utilityName":"Bangalore Water Supply and Sewerage Board","name":"Bengaluru urban aquifer","sourceType":"groundwater","sourceKind":"aquifer","iconId":"water-utility","sourceIndex":3}},{"type":"Feature","geometry":{"type":"Point","coordinates":[77.25,12.32]},"properties":{"id":"bwssb-bengaluru-source-1","utilityId":"bwssb-bengaluru","utilityName":"Bangalore Water Supply and Sewerage Board","name":"Cauvery River at TK Halli","sourceType":"surface","sourceKind":"river intake","iconId":"water-utility","sourceIndex":1}},{"type":"Feature","geometry":{"type":"Point","coordinates":[77.35,13.03]},"properties":{"id":"bwssb-bengaluru-source-2","utilityId":"bwssb-bengaluru","utilityName":"Bangalore Water Supply and Sewerage Board","name":"Thippagondanahalli Reservoir","sourceType":"surface","sourceKind":"reservoir","iconId":"water-utility","sourceIndex":2}},{"type":"Feature","geometry":{"type":"Point","coordinates":[20.47,44.85]},"properties":{"id":"belgrade-waterworks-source-2","utilityId":"belgrade-waterworks","utilityName":"Belgrade Waterworks and Sewerage","name":"Danube River","sourceType":"surface","sourceKind":"river","iconId":"water-utility","sourceIndex":2}},{"type":"Feature","geometry":{"type":"Point","coordinates":[20.4,44.8]},"properties":{"id":"belgrade-waterworks-source-1","utilityId":"belgrade-waterworks","utilityName":"Belgrade Waterworks and Sewerage","name":"Sava River alluvial wells","sourceType":"groundwater","sourceKind":"riverbank filtration","iconId":"water-utility","sourceIndex":1}},{"type":"Feature","geometry":{"type":"Point","coordinates":[13.25,52.58]},"properties":{"id":"berliner-wasserbetriebe-source-2","utilityId":"berliner-wasserbetriebe","utilityName":"Berliner Wasserbetriebe","name":"Lake Tegel","sourceType":"surface","sourceKind":"lake","iconId":"water-utility","sourceIndex":2}},{"type":"Feature","geometry":{"type":"Point","coordinates":[13.65,52.43]},"properties":{"id":"berliner-wasserbetriebe-source-3","utilityId":"berliner-wasserbetriebe","utilityName":"Berliner Wasserbetriebe","name":"Muggelsee","sourceType":"surface","sourceKind":"lake","iconId":"water-utility","sourceIndex":3}},{"type":"Feature","geometry":{"type":"Point","coordinates":[13.3,52.45]},"properties":{"id":"berliner-wasserbetriebe-source-1","utilityId":"berliner-wasserbetriebe","utilityName":"Berliner Wasserbetriebe","name":"Spree-Havel bank-filtered groundwater","sourceType":"groundwater","sourceKind":"aquifer","iconId":"water-utility","sourceIndex":1}},{"type":"Feature","geometry":{"type":"Point","coordinates":[-87.54,41.72]},"properties":{"id":"calumet-city-water-source-1","utilityId":"calumet-city-water","utilityName":"Calumet City Water Department","name":"Lake Michigan","sourceType":"surface","sourceKind":"lake intake","iconId":"water-utility","sourceIndex":1}},{"type":"Feature","geometry":{"type":"Point","coordinates":[105.75,10.04]},"properties":{"id":"can-tho-wassco-source-2","utilityId":"can-tho-wassco","utilityName":"Can Tho Water Supply and Sewerage JSC","name":"Can Tho groundwater wells","sourceType":"groundwater","sourceKind":"wellfield","iconId":"water-utility","sourceIndex":2}},{"type":"Feature","geometry":{"type":"Point","coordinates":[105.78,10.05]},"properties":{"id":"can-tho-wassco-source-1","utilityId":"can-tho-wassco","utilityName":"Can Tho Water Supply and Sewerage JSC","name":"Hau River","sourceType":"surface","sourceKind":"river","iconId":"water-utility","sourceIndex":1}},{"type":"Feature","geometry":{"type":"Point","coordinates":[-3.47,40.9]},"properties":{"id":"canal-isabel-ii-source-2","utilityId":"canal-isabel-ii","utilityName":"Canal de Isabel II","name":"El Atazar Reservoir","sourceType":"surface","sourceKind":"reservoir","iconId":"water-utility","sourceIndex":2}},{"type":"Feature","geometry":{"type":"Point","coordinates":[-3.59,40.92]},"properties":{"id":"canal-isabel-ii-source-1","utilityId":"canal-isabel-ii","utilityName":"Canal de Isabel II","name":"Lozoya River reservoirs","sourceType":"surface","sourceKind":"reservoir system","iconId":"water-utility","sourceIndex":1}},{"type":"Feature","geometry":{"type":"Point","coordinates":[-3.7,40.42]},"properties":{"id":"canal-isabel-ii-source-3","utilityId":"canal-isabel-ii","utilityName":"Canal de Isabel II","name":"Madrid aquifer","sourceType":"groundwater","sourceKind":"aquifer","iconId":"water-utility","sourceIndex":3}},{"type":"Feature","geometry":{"type":"Point","coordinates":[-100.4,20.6]},"properties":{"id":"cea-queretaro-source-2","utilityId":"cea-queretaro","utilityName":"CEA Queretaro","name":"Queretaro aquifer","sourceType":"groundwater","sourceKind":"aquifer","iconId":"water-utility","sourceIndex":2}},{"type":"Feature","geometry":{"type":"Point","coordinates":[-99.5,20.65]},"properties":{"id":"cea-queretaro-source-1","utilityId":"cea-queretaro","utilityName":"CEA Queretaro","name":"Zimapan Dam / Acueducto II","sourceType":"surface","sourceKind":"reservoir","iconId":"water-utility","sourceIndex":1}},{"type":"Feature","geometry":{"type":"Point","coordinates":[-88.13,42.34]},"properties":{"id":"clcjawa-round-lake-source-2","utilityId":"clcjawa-round-lake","utilityName":"Central Lake County Joint Action Water Agency","name":"Central Lake County transmission system","sourceType":"surface","sourceKind":"treated water system","iconId":"water-utility","sourceIndex":2}},{"type":"Feature","geometry":{"type":"Point","coordinates":[-87.83,42.35]},"properties":{"id":"clcjawa-round-lake-source-1","utilityId":"clcjawa-round-lake","utilityName":"Central Lake County Joint Action Water Agency","name":"Lake Michigan","sourceType":"surface","sourceKind":"lake intake","iconId":"water-utility","sourceIndex":1}},{"type":"Feature","geometry":{"type":"Point","coordinates":[80.05,13]},"properties":{"id":"chennai-metrowater-source-1","utilityId":"chennai-metrowater","utilityName":"Chennai Metropolitan Water Supply and Sewerage Board","name":"Chembarambakkam Lake","sourceType":"surface","sourceKind":"lake","iconId":"water-utility","sourceIndex":1}},{"type":"Feature","geometry":{"type":"Point","coordinates":[79.93,13.24]},"properties":{"id":"chennai-metrowater-source-2","utilityId":"chennai-metrowater","utilityName":"Chennai Metropolitan Water Supply and Sewerage Board","name":"Poondi Reservoir","sourceType":"surface","sourceKind":"reservoir","iconId":"water-utility","sourceIndex":2}},{"type":"Feature","geometry":{"type":"Point","coordinates":[79.52,11.23]},"properties":{"id":"chennai-metrowater-source-3","utilityId":"chennai-metrowater","utilityName":"Chennai Metropolitan Water Supply and Sewerage Board","name":"Veeranam Lake","sourceType":"surface","sourceKind":"lake","iconId":"water-utility","sourceIndex":3}},{"type":"Feature","geometry":{"type":"Point","coordinates":[-76.04,39.78]},"properties":{"id":"chester-water-authority-source-1","utilityId":"chester-water-authority","utilityName":"Chester Water Authority","name":"Octoraro Reservoir","sourceType":"surface","sourceKind":"reservoir","iconId":"water-utility","sourceIndex":1}},{"type":"Feature","geometry":{"type":"Point","coordinates":[-76.16,39.8]},"properties":{"id":"chester-water-authority-source-2","utilityId":"chester-water-authority","utilityName":"Chester Water Authority","name":"Susquehanna River","sourceType":"surface","sourceKind":"river","iconId":"water-utility","sourceIndex":2}},{"type":"Feature","geometry":{"type":"Point","coordinates":[-84.93,31.38]},"properties":{"id":"city-of-blakely-water-source-1","utilityId":"city-of-blakely-water","utilityName":"City of Blakely Water Department","name":"Blakely municipal wells","sourceType":"groundwater","sourceKind":"wellfield","iconId":"water-utility","sourceIndex":1}},{"type":"Feature","geometry":{"type":"Point","coordinates":[-85.02,31.24]},"properties":{"id":"city-of-blakely-water-source-2","utilityId":"city-of-blakely-water","utilityName":"City of Blakely Water Department","name":"Spring Creek","sourceType":"surface","sourceKind":"creek","iconId":"water-utility","sourceIndex":2}},{"type":"Feature","geometry":{"type":"Point","coordinates":[-82.96,40.18]},"properties":{"id":"city-of-delaware-ohio-source-2","utilityId":"city-of-delaware-ohio","utilityName":"City of Delaware Public Utilities","name":"Alum Creek Reservoir","sourceType":"surface","sourceKind":"reservoir","iconId":"water-utility","sourceIndex":2}},{"type":"Feature","geometry":{"type":"Point","coordinates":[-83.1,40.29]},"properties":{"id":"city-of-delaware-ohio-source-3","utilityId":"city-of-delaware-ohio","utilityName":"City of Delaware Public Utilities","name":"Delaware municipal wells","sourceType":"groundwater","sourceKind":"wellfield","iconId":"water-utility","sourceIndex":3}},{"type":"Feature","geometry":{"type":"Point","coordinates":[-83.07,40.3]},"properties":{"id":"city-of-delaware-ohio-source-1","utilityId":"city-of-delaware-ohio","utilityName":"City of Delaware Public Utilities","name":"Olentangy River","sourceType":"surface","sourceKind":"river","iconId":"water-utility","sourceIndex":1}},{"type":"Feature","geometry":{"type":"Point","coordinates":[-112.42,33.45]},"properties":{"id":"goodyear-water-services-source-1","utilityId":"goodyear-water-services","utilityName":"City of Goodyear Water Services","name":"Central Arizona Project canal","sourceType":"surface","sourceKind":"canal","iconId":"water-utility","sourceIndex":1}},{"type":"Feature","geometry":{"type":"Point","coordinates":[-112.43,33.41]},"properties":{"id":"goodyear-water-services-source-2","utilityId":"goodyear-water-services","utilityName":"City of Goodyear Water Services","name":"Goodyear groundwater wells","sourceType":"groundwater","sourceKind":"wellfield","iconId":"water-utility","sourceIndex":2}},{"type":"Feature","geometry":{"type":"Point","coordinates":[-121.43,38.59]},"properties":{"id":"sacramento-utilities-source-2","utilityId":"sacramento-utilities","utilityName":"City of Sacramento Department of Utilities","name":"American River","sourceType":"surface","sourceKind":"river","iconId":"water-utility","sourceIndex":2}},{"type":"Feature","geometry":{"type":"Point","coordinates":[-121.4,38.48]},"properties":{"id":"sacramento-utilities-source-3","utilityId":"sacramento-utilities","utilityName":"City of Sacramento Department of Utilities","name":"Sacramento groundwater wells","sourceType":"groundwater","sourceKind":"wellfield","iconId":"water-utility","sourceIndex":3}},{"type":"Feature","geometry":{"type":"Point","coordinates":[-121.5,38.58]},"properties":{"id":"sacramento-utilities-source-1","utilityId":"sacramento-utilities","utilityName":"City of Sacramento Department of Utilities","name":"Sacramento River","sourceType":"surface","sourceKind":"river","iconId":"water-utility","sourceIndex":1}},{"type":"Feature","geometry":{"type":"Point","coordinates":[-114.73,32.72]},"properties":{"id":"san-diego-public-utilities-source-2","utilityId":"san-diego-public-utilities","utilityName":"City of San Diego Public Utilities Department","name":"Colorado River Aqueduct imported supply","sourceType":"surface","sourceKind":"aqueduct","iconId":"water-utility","sourceIndex":2}},{"type":"Feature","geometry":{"type":"Point","coordinates":[-116.93,32.92]},"properties":{"id":"san-diego-public-utilities-source-1","utilityId":"san-diego-public-utilities","utilityName":"City of San Diego Public Utilities Department","name":"San Vicente Reservoir","sourceType":"surface","sourceKind":"reservoir","iconId":"water-utility","sourceIndex":1}},{"type":"Feature","geometry":{"type":"Point","coordinates":[-117.5,34.2]},"properties":{"id":"san-diego-public-utilities-source-3","utilityId":"san-diego-public-utilities","utilityName":"City of San Diego Public Utilities Department","name":"State Water Project imported supply","sourceType":"surface","sourceKind":"aqueduct","iconId":"water-utility","sourceIndex":3}},{"type":"Feature","geometry":{"type":"Point","coordinates":[-48.43,-1.4]},"properties":{"id":"cosanpa-belem-source-2","utilityId":"cosanpa-belem","utilityName":"COSANPA","name":"Agua Preta Lake","sourceType":"surface","sourceKind":"lake","iconId":"water-utility","sourceIndex":2}},{"type":"Feature","geometry":{"type":"Point","coordinates":[-48.43,-1.43]},"properties":{"id":"cosanpa-belem-source-1","utilityId":"cosanpa-belem","utilityName":"COSANPA","name":"Bolonha Lake","sourceType":"surface","sourceKind":"lake","iconId":"water-utility","sourceIndex":1}},{"type":"Feature","geometry":{"type":"Point","coordinates":[-48.45,-1.48]},"properties":{"id":"cosanpa-belem-source-3","utilityId":"cosanpa-belem","utilityName":"COSANPA","name":"Guama River","sourceType":"surface","sourceKind":"river","iconId":"water-utility","sourceIndex":3}},{"type":"Feature","geometry":{"type":"Point","coordinates":[90.4,23.8]},"properties":{"id":"dhaka-wasa-source-1","utilityId":"dhaka-wasa","utilityName":"Dhaka WASA","name":"Dhaka deep tube wells","sourceType":"groundwater","sourceKind":"wellfield","iconId":"water-utility","sourceIndex":1}},{"type":"Feature","geometry":{"type":"Point","coordinates":[90.36,23.45]},"properties":{"id":"dhaka-wasa-source-2","utilityId":"dhaka-wasa","utilityName":"Dhaka WASA","name":"Padma-Jashaldia intake","sourceType":"surface","sourceKind":"river intake","iconId":"water-utility","sourceIndex":2}},{"type":"Feature","geometry":{"type":"Point","coordinates":[90.5,23.68]},"properties":{"id":"dhaka-wasa-source-3","utilityId":"dhaka-wasa","utilityName":"Dhaka WASA","name":"Sitalakhya River","sourceType":"surface","sourceKind":"river","iconId":"water-utility","sourceIndex":3}},{"type":"Feature","geometry":{"type":"Point","coordinates":[-51.25,-30.05]},"properties":{"id":"dmae-porto-alegre-source-1","utilityId":"dmae-porto-alegre","utilityName":"DMAE Porto Alegre","name":"Guaiba Lake","sourceType":"surface","sourceKind":"lake","iconId":"water-utility","sourceIndex":1}},{"type":"Feature","geometry":{"type":"Point","coordinates":[-51.25,-29.95]},"properties":{"id":"dmae-porto-alegre-source-2","utilityId":"dmae-porto-alegre","utilityName":"DMAE Porto Alegre","name":"Jacui Delta","sourceType":"surface","sourceKind":"river delta","iconId":"water-utility","sourceIndex":2}},{"type":"Feature","geometry":{"type":"Point","coordinates":[-90.52,14.62]},"properties":{"id":"empagua-guatemala-source-3","utilityId":"empagua-guatemala","utilityName":"EMPAGUA","name":"Guatemala City groundwater wells","sourceType":"groundwater","sourceKind":"wellfield","iconId":"water-utility","sourceIndex":3}},{"type":"Feature","geometry":{"type":"Point","coordinates":[-90.49,14.68]},"properties":{"id":"empagua-guatemala-source-2","utilityId":"empagua-guatemala","utilityName":"EMPAGUA","name":"Las Vacas River","sourceType":"surface","sourceKind":"river","iconId":"water-utility","sourceIndex":2}},{"type":"Feature","geometry":{"type":"Point","coordinates":[-90.74,14.74]},"properties":{"id":"empagua-guatemala-source-1","utilityId":"empagua-guatemala","utilityName":"EMPAGUA","name":"Xaya-Pixcaya aqueduct","sourceType":"surface","sourceKind":"aqueduct","iconId":"water-utility","sourceIndex":1}},{"type":"Feature","geometry":{"type":"Point","coordinates":[-76.42,3.21]},"properties":{"id":"empuerto-puerto-tejada-source-2","utilityId":"empuerto-puerto-tejada","utilityName":"Empresa de Servicios Publicos de Puerto Tejada","name":"Puerto Tejada groundwater wells","sourceType":"groundwater","sourceKind":"wellfield","iconId":"water-utility","sourceIndex":2}},{"type":"Feature","geometry":{"type":"Point","coordinates":[-76.45,3.25]},"properties":{"id":"empuerto-puerto-tejada-source-1","utilityId":"empuerto-puerto-tejada","utilityName":"Empresa de Servicios Publicos de Puerto Tejada","name":"Rio Palo","sourceType":"surface","sourceKind":"river","iconId":"water-utility","sourceIndex":1}},{"type":"Feature","geometry":{"type":"Point","coordinates":[-75.55,6.1]},"properties":{"id":"epm-medellin-source-2","utilityId":"epm-medellin","utilityName":"Empresas Publicas de Medellin","name":"La Fe Reservoir","sourceType":"surface","sourceKind":"reservoir","iconId":"water-utility","sourceIndex":2}},{"type":"Feature","geometry":{"type":"Point","coordinates":[-75.49,6.28]},"properties":{"id":"epm-medellin-source-3","utilityId":"epm-medellin","utilityName":"Empresas Publicas de Medellin","name":"Piedras Blancas Reservoir","sourceType":"surface","sourceKind":"reservoir","iconId":"water-utility","sourceIndex":3}},{"type":"Feature","geometry":{"type":"Point","coordinates":[-75.5,6.47]},"properties":{"id":"epm-medellin-source-1","utilityId":"epm-medellin","utilityName":"Empresas Publicas de Medellin","name":"Rio Grande II Reservoir","sourceType":"surface","sourceKind":"reservoir","iconId":"water-utility","sourceIndex":1}},{"type":"Feature","geometry":{"type":"Point","coordinates":[-68.06,-38.95]},"properties":{"id":"epas-neuquen-source-2","utilityId":"epas-neuquen","utilityName":"EPAS Neuquen","name":"Limay River","sourceType":"surface","sourceKind":"river","iconId":"water-utility","sourceIndex":2}},{"type":"Feature","geometry":{"type":"Point","coordinates":[-68.77,-38.95]},"properties":{"id":"epas-neuquen-source-3","utilityId":"epas-neuquen","utilityName":"EPAS Neuquen","name":"Neuquen alluvial aquifer","sourceType":"groundwater","sourceKind":"aquifer","iconId":"water-utility","sourceIndex":3}},{"type":"Feature","geometry":{"type":"Point","coordinates":[-68.8,-38.55]},"properties":{"id":"epas-neuquen-source-1","utilityId":"epas-neuquen","utilityName":"EPAS Neuquen","name":"Neuquen River","sourceType":"surface","sourceKind":"river","iconId":"water-utility","sourceIndex":1}},{"type":"Feature","geometry":{"type":"Point","coordinates":[-79.84,-6.76]},"properties":{"id":"epsel-lambayeque-source-1","utilityId":"epsel-lambayeque","utilityName":"EPSEL S.A.","name":"Chancay-Lambayeque River","sourceType":"surface","sourceKind":"river","iconId":"water-utility","sourceIndex":1}},{"type":"Feature","geometry":{"type":"Point","coordinates":[-79.88,-6.33]},"properties":{"id":"epsel-lambayeque-source-3","utilityId":"epsel-lambayeque","utilityName":"EPSEL S.A.","name":"Lambayeque groundwater wells","sourceType":"groundwater","sourceKind":"wellfield","iconId":"water-utility","sourceIndex":3}},{"type":"Feature","geometry":{"type":"Point","coordinates":[-79.48,-6.64]},"properties":{"id":"epsel-lambayeque-source-2","utilityId":"epsel-lambayeque","utilityName":"EPSEL S.A.","name":"Tinajones Reservoir","sourceType":"surface","sourceKind":"reservoir","iconId":"water-utility","sourceIndex":2}},{"type":"Feature","geometry":{"type":"Point","coordinates":[-77.8,38.55]},"properties":{"id":"fauquier-water-source-2","utilityId":"fauquier-water","utilityName":"Fauquier County Water and Sanitation Authority","name":"Rappahannock River","sourceType":"surface","sourceKind":"river","iconId":"water-utility","sourceIndex":2}},{"type":"Feature","geometry":{"type":"Point","coordinates":[-77.78,38.53]},"properties":{"id":"fauquier-water-source-1","utilityId":"fauquier-water","utilityName":"Fauquier County Water and Sanitation Authority","name":"Remington groundwater wells","sourceType":"groundwater","sourceKind":"wellfield","iconId":"water-utility","sourceIndex":1}},{"type":"Feature","geometry":{"type":"Point","coordinates":[9.05,45.44]},"properties":{"id":"cap-holding-milan-source-1","utilityId":"cap-holding-milan","utilityName":"Gruppo CAP","name":"Milan plain aquifer","sourceType":"groundwater","sourceKind":"aquifer","iconId":"water-utility","sourceIndex":1}},{"type":"Feature","geometry":{"type":"Point","coordinates":[8.95,45.45]},"properties":{"id":"cap-holding-milan-source-2","utilityId":"cap-holding-milan","utilityName":"Gruppo CAP","name":"Ticino groundwater recharge area","sourceType":"groundwater","sourceKind":"aquifer","iconId":"water-utility","sourceIndex":2}},{"type":"Feature","geometry":{"type":"Point","coordinates":[-87.48,41.7]},"properties":{"id":"hammond-water-works-source-1","utilityId":"hammond-water-works","utilityName":"Hammond Water Works Department","name":"Lake Michigan","sourceType":"surface","sourceKind":"lake intake","iconId":"water-utility","sourceIndex":1}},{"type":"Feature","geometry":{"type":"Point","coordinates":[31.32,22.65]},"properties":{"id":"hcww-aswan-source-1","utilityId":"hcww-aswan","utilityName":"Holding Company for Water and Wastewater - Aswan","name":"Lake Nasser","sourceType":"surface","sourceKind":"lake","iconId":"water-utility","sourceIndex":1}},{"type":"Feature","geometry":{"type":"Point","coordinates":[32.89,24.09]},"properties":{"id":"hcww-aswan-source-2","utilityId":"hcww-aswan","utilityName":"Holding Company for Water and Wastewater - Aswan","name":"Nile River","sourceType":"surface","sourceKind":"river","iconId":"water-utility","sourceIndex":2}},{"type":"Feature","geometry":{"type":"Point","coordinates":[139.99,36.14]},"properties":{"id":"ibaraki-prefectural-water-source-1","utilityId":"ibaraki-prefectural-water","utilityName":"Ibaraki Prefectural Public Enterprise Bureau","name":"Kinu River","sourceType":"surface","sourceKind":"river","iconId":"water-utility","sourceIndex":1}},{"type":"Feature","geometry":{"type":"Point","coordinates":[140.41,36.05]},"properties":{"id":"ibaraki-prefectural-water-source-2","utilityId":"ibaraki-prefectural-water","utilityName":"Ibaraki Prefectural Public Enterprise Bureau","name":"Lake Kasumigaura","sourceType":"surface","sourceKind":"lake","iconId":"water-utility","sourceIndex":2}},{"type":"Feature","geometry":{"type":"Point","coordinates":[140,36.15]},"properties":{"id":"ibaraki-prefectural-water-source-3","utilityId":"ibaraki-prefectural-water","utilityName":"Ibaraki Prefectural Public Enterprise Bureau","name":"Shimotsuma groundwater wells","sourceType":"groundwater","sourceKind":"wellfield","iconId":"water-utility","sourceIndex":3}},{"type":"Feature","geometry":{"type":"Point","coordinates":[30.92,41.1]},"properties":{"id":"iski-istanbul-source-3","utilityId":"iski-istanbul","utilityName":"ISKI","name":"Melen River system","sourceType":"surface","sourceKind":"river","iconId":"water-utility","sourceIndex":3}},{"type":"Feature","geometry":{"type":"Point","coordinates":[29.34,41.02]},"properties":{"id":"iski-istanbul-source-2","utilityId":"iski-istanbul","utilityName":"ISKI","name":"Omerli Reservoir","sourceType":"surface","sourceKind":"reservoir","iconId":"water-utility","sourceIndex":2}},{"type":"Feature","geometry":{"type":"Point","coordinates":[28.6,41.31]},"properties":{"id":"iski-istanbul-source-1","utilityId":"iski-istanbul","utilityName":"ISKI","name":"Terkos Lake","sourceType":"surface","sourceKind":"lake","iconId":"water-utility","sourceIndex":1}},{"type":"Feature","geometry":{"type":"Point","coordinates":[73.7,32.97]},"properties":{"id":"jhelum-municipal-water-source-2","utilityId":"jhelum-municipal-water","utilityName":"Jhelum Municipal Corporation Water Supply","name":"Jhelum groundwater wells","sourceType":"groundwater","sourceKind":"wellfield","iconId":"water-utility","sourceIndex":2}},{"type":"Feature","geometry":{"type":"Point","coordinates":[73.73,32.95]},"properties":{"id":"jhelum-municipal-water-source-1","utilityId":"jhelum-municipal-water","utilityName":"Jhelum Municipal Corporation Water Supply","name":"Jhelum River","sourceType":"surface","sourceKind":"river","iconId":"water-utility","sourceIndex":1}},{"type":"Feature","geometry":{"type":"Point","coordinates":[-106.1,28.63]},"properties":{"id":"jmas-chihuahua-source-2","utilityId":"jmas-chihuahua","utilityName":"JMAS Chihuahua","name":"Chuviscar River basin","sourceType":"surface","sourceKind":"river","iconId":"water-utility","sourceIndex":2}},{"type":"Feature","geometry":{"type":"Point","coordinates":[-106.05,28.75]},"properties":{"id":"jmas-chihuahua-source-1","utilityId":"jmas-chihuahua","utilityName":"JMAS Chihuahua","name":"Sacramento aquifer","sourceType":"groundwater","sourceKind":"aquifer","iconId":"water-utility","sourceIndex":1}},{"type":"Feature","geometry":{"type":"Point","coordinates":[76.56,18.4]},"properties":{"id":"latur-municipal-water-source-2","utilityId":"latur-municipal-water","utilityName":"Latur Municipal Corporation Water Supply","name":"Latur groundwater wells","sourceType":"groundwater","sourceKind":"wellfield","iconId":"water-utility","sourceIndex":2}},{"type":"Feature","geometry":{"type":"Point","coordinates":[76.43,18.7]},"properties":{"id":"latur-municipal-water-source-1","utilityId":"latur-municipal-water","utilityName":"Latur Municipal Corporation Water Supply","name":"Manjara Dam","sourceType":"surface","sourceKind":"reservoir","iconId":"water-utility","sourceIndex":1}},{"type":"Feature","geometry":{"type":"Point","coordinates":[-82.01,35.7]},"properties":{"id":"mcdowell-county-water-source-1","utilityId":"mcdowell-county-water","utilityName":"McDowell County Water System","name":"Catawba River","sourceType":"surface","sourceKind":"river","iconId":"water-utility","sourceIndex":1}},{"type":"Feature","geometry":{"type":"Point","coordinates":[-81.96,35.74]},"properties":{"id":"mcdowell-county-water-source-2","utilityId":"mcdowell-county-water","utilityName":"McDowell County Water System","name":"Lake James","sourceType":"surface","sourceKind":"reservoir","iconId":"water-utility","sourceIndex":2}},{"type":"Feature","geometry":{"type":"Point","coordinates":[-82,35.85]},"properties":{"id":"mcdowell-county-water-source-3","utilityId":"mcdowell-county-water","utilityName":"McDowell County Water System","name":"North Cove groundwater wells","sourceType":"groundwater","sourceKind":"wellfield","iconId":"water-utility","sourceIndex":3}},{"type":"Feature","geometry":{"type":"Point","coordinates":[26.41,-33.73]},"properties":{"id":"ndlambe-water-services-source-2","utilityId":"ndlambe-water-services","utilityName":"Ndlambe Local Municipality Water Services","name":"Alexandria groundwater wells","sourceType":"groundwater","sourceKind":"wellfield","iconId":"water-utility","sourceIndex":2}},{"type":"Feature","geometry":{"type":"Point","coordinates":[26.63,-33.48]},"properties":{"id":"ndlambe-water-services-source-1","utilityId":"ndlambe-water-services","utilityName":"Ndlambe Local Municipality Water Services","name":"Bushmans River","sourceType":"surface","sourceKind":"river","iconId":"water-utility","sourceIndex":1}},{"type":"Feature","geometry":{"type":"Point","coordinates":[77.36,28.62]},"properties":{"id":"noida-authority-water-source-2","utilityId":"noida-authority-water","utilityName":"Noida Authority Water Supply","name":"Noida groundwater wells","sourceType":"groundwater","sourceKind":"wellfield","iconId":"water-utility","sourceIndex":2}},{"type":"Feature","geometry":{"type":"Point","coordinates":[77.55,28.6]},"properties":{"id":"noida-authority-water-source-1","utilityId":"noida-authority-water","utilityName":"Noida Authority Water Supply","name":"Upper Ganga Canal","sourceType":"surface","sourceKind":"canal","iconId":"water-utility","sourceIndex":1}},{"type":"Feature","geometry":{"type":"Point","coordinates":[-68.53,-31.55]},"properties":{"id":"osse-san-juan-source-3","utilityId":"osse-san-juan","utilityName":"Obras Sanitarias Sociedad del Estado San Juan","name":"San Juan alluvial aquifer","sourceType":"groundwater","sourceKind":"aquifer","iconId":"water-utility","sourceIndex":3}},{"type":"Feature","geometry":{"type":"Point","coordinates":[-68.7,-31.53]},"properties":{"id":"osse-san-juan-source-1","utilityId":"osse-san-juan","utilityName":"Obras Sanitarias Sociedad del Estado San Juan","name":"San Juan River","sourceType":"surface","sourceKind":"river","iconId":"water-utility","sourceIndex":1}},{"type":"Feature","geometry":{"type":"Point","coordinates":[-68.67,-31.52]},"properties":{"id":"osse-san-juan-source-2","utilityId":"osse-san-juan","utilityName":"Obras Sanitarias Sociedad del Estado San Juan","name":"Ullum Dam","sourceType":"surface","sourceKind":"reservoir","iconId":"water-utility","sourceIndex":2}},{"type":"Feature","geometry":{"type":"Point","coordinates":[-9.18,30.63]},"properties":{"id":"onee-souss-massa-source-2","utilityId":"onee-souss-massa","utilityName":"ONEE - Branche Eau","name":"Abdelmoumen Dam","sourceType":"surface","sourceKind":"reservoir","iconId":"water-utility","sourceIndex":2}},{"type":"Feature","geometry":{"type":"Point","coordinates":[-8.2,30.66]},"properties":{"id":"onee-souss-massa-source-3","utilityId":"onee-souss-massa","utilityName":"ONEE - Branche Eau","name":"Aoulouz Dam","sourceType":"surface","sourceKind":"reservoir","iconId":"water-utility","sourceIndex":3}},{"type":"Feature","geometry":{"type":"Point","coordinates":[-5.35,33.44]},"properties":{"id":"onee-azrou-source-2","utilityId":"onee-azrou","utilityName":"ONEE - Branche Eau","name":"Azrou groundwater wells","sourceType":"groundwater","sourceKind":"wellfield","iconId":"water-utility","sourceIndex":2}},{"type":"Feature","geometry":{"type":"Point","coordinates":[-2.75,34.67]},"properties":{"id":"onee-berkane-source-1","utilityId":"onee-berkane","utilityName":"ONEE - Branche Eau","name":"Moulouya River","sourceType":"surface","sourceKind":"river","iconId":"water-utility","sourceIndex":1}},{"type":"Feature","geometry":{"type":"Point","coordinates":[-9.35,30.14]},"properties":{"id":"onee-souss-massa-source-1","utilityId":"onee-souss-massa","utilityName":"ONEE - Branche Eau","name":"Souss-Massa aquifer","sourceType":"groundwater","sourceKind":"aquifer","iconId":"water-utility","sourceIndex":1}},{"type":"Feature","geometry":{"type":"Point","coordinates":[-5.22,33.48]},"properties":{"id":"onee-azrou-source-1","utilityId":"onee-azrou","utilityName":"ONEE - Branche Eau","name":"Tigrigra springs","sourceType":"groundwater","sourceKind":"spring","iconId":"water-utility","sourceIndex":1}},{"type":"Feature","geometry":{"type":"Point","coordinates":[-2.31,34.92]},"properties":{"id":"onee-berkane-source-2","utilityId":"onee-berkane","utilityName":"ONEE - Branche Eau","name":"Triffa aquifer","sourceType":"groundwater","sourceKind":"aquifer","iconId":"water-utility","sourceIndex":2}},{"type":"Feature","geometry":{"type":"Point","coordinates":[-99.52,19.29]},"properties":{"id":"opdapas-lerma-source-1","utilityId":"opdapas-lerma","utilityName":"OPDAPAS Lerma","name":"Lerma aquifer","sourceType":"groundwater","sourceKind":"aquifer","iconId":"water-utility","sourceIndex":1}},{"type":"Feature","geometry":{"type":"Point","coordinates":[-99.49,19.3]},"properties":{"id":"opdapas-lerma-source-2","utilityId":"opdapas-lerma","utilityName":"OPDAPAS Lerma","name":"Lerma River","sourceType":"surface","sourceKind":"river","iconId":"water-utility","sourceIndex":2}},{"type":"Feature","geometry":{"type":"Point","coordinates":[-58.08,-32.28]},"properties":{"id":"ose-paysandu-source-2","utilityId":"ose-paysandu","utilityName":"OSE","name":"Paysandu groundwater wells","sourceType":"groundwater","sourceKind":"wellfield","iconId":"water-utility","sourceIndex":2}},{"type":"Feature","geometry":{"type":"Point","coordinates":[-58.07,-32.31]},"properties":{"id":"ose-paysandu-source-1","utilityId":"ose-paysandu","utilityName":"OSE","name":"Uruguay River","sourceType":"surface","sourceKind":"river","iconId":"water-utility","sourceIndex":1}},{"type":"Feature","geometry":{"type":"Point","coordinates":[75.45,25.92]},"properties":{"id":"phed-rajasthan-jaipur-source-1","utilityId":"phed-rajasthan-jaipur","utilityName":"PHED Rajasthan","name":"Bisalpur Dam","sourceType":"surface","sourceKind":"reservoir","iconId":"water-utility","sourceIndex":1}},{"type":"Feature","geometry":{"type":"Point","coordinates":[75.79,26.91]},"properties":{"id":"phed-rajasthan-jaipur-source-2","utilityId":"phed-rajasthan-jaipur","utilityName":"PHED Rajasthan","name":"Jaipur groundwater wells","sourceType":"groundwater","sourceKind":"wellfield","iconId":"water-utility","sourceIndex":2}},{"type":"Feature","geometry":{"type":"Point","coordinates":[4.82,51.22]},"properties":{"id":"pidpa-oevel-source-2","utilityId":"pidpa-oevel","utilityName":"Pidpa","name":"Albert Canal","sourceType":"surface","sourceKind":"canal","iconId":"water-utility","sourceIndex":2}},{"type":"Feature","geometry":{"type":"Point","coordinates":[4.92,51.14]},"properties":{"id":"pidpa-oevel-source-1","utilityId":"pidpa-oevel","utilityName":"Pidpa","name":"Antwerp Campine groundwater","sourceType":"groundwater","sourceKind":"aquifer","iconId":"water-utility","sourceIndex":1}},{"type":"Feature","geometry":{"type":"Point","coordinates":[101.2,12.9]},"properties":{"id":"pwa-rayong-source-3","utilityId":"pwa-rayong","utilityName":"Provincial Waterworks Authority - Rayong","name":"Dok Krai Reservoir","sourceType":"surface","sourceKind":"reservoir","iconId":"water-utility","sourceIndex":3}},{"type":"Feature","geometry":{"type":"Point","coordinates":[101.15,12.91]},"properties":{"id":"pwa-rayong-source-1","utilityId":"pwa-rayong","utilityName":"Provincial Waterworks Authority - Rayong","name":"Nong Pla Lai Reservoir","sourceType":"surface","sourceKind":"reservoir","iconId":"water-utility","sourceIndex":1}},{"type":"Feature","geometry":{"type":"Point","coordinates":[101.65,12.85]},"properties":{"id":"pwa-rayong-source-2","utilityId":"pwa-rayong","utilityName":"Provincial Waterworks Authority - Rayong","name":"Prasae Reservoir","sourceType":"surface","sourceKind":"reservoir","iconId":"water-utility","sourceIndex":2}},{"type":"Feature","geometry":{"type":"Point","coordinates":[99.94,13.42]},"properties":{"id":"pwa-samut-sakhon-source-2","utilityId":"pwa-samut-sakhon","utilityName":"Provincial Waterworks Authority - Samut Sakhon","name":"Mae Klong transfer corridor","sourceType":"surface","sourceKind":"river transfer","iconId":"water-utility","sourceIndex":2}},{"type":"Feature","geometry":{"type":"Point","coordinates":[100.27,13.55]},"properties":{"id":"pwa-samut-sakhon-source-1","utilityId":"pwa-samut-sakhon","utilityName":"Provincial Waterworks Authority - Samut Sakhon","name":"Tha Chin River","sourceType":"surface","sourceKind":"river","iconId":"water-utility","sourceIndex":1}},{"type":"Feature","geometry":{"type":"Point","coordinates":[101.08,14.87]},"properties":{"id":"pwa-saraburi-source-1","utilityId":"pwa-saraburi","utilityName":"Provincial Waterworks Authority - Saraburi","name":"Pa Sak Jolasid Dam","sourceType":"surface","sourceKind":"reservoir","iconId":"water-utility","sourceIndex":1}},{"type":"Feature","geometry":{"type":"Point","coordinates":[100.91,14.53]},"properties":{"id":"pwa-saraburi-source-2","utilityId":"pwa-saraburi","utilityName":"Provincial Waterworks Authority - Saraburi","name":"Pa Sak River","sourceType":"surface","sourceKind":"river","iconId":"water-utility","sourceIndex":2}},{"type":"Feature","geometry":{"type":"Point","coordinates":[100.9,14.39]},"properties":{"id":"pwa-saraburi-source-3","utilityId":"pwa-saraburi","utilityName":"Provincial Waterworks Authority - Saraburi","name":"Saraburi groundwater wells","sourceType":"groundwater","sourceKind":"wellfield","iconId":"water-utility","sourceIndex":3}},{"type":"Feature","geometry":{"type":"Point","coordinates":[73.8,18.86]},"properties":{"id":"pune-municipal-corporation-source-3","utilityId":"pune-municipal-corporation","utilityName":"Pune Municipal Corporation Water Supply","name":"Bhama Askhed Dam","sourceType":"surface","sourceKind":"reservoir","iconId":"water-utility","sourceIndex":3}},{"type":"Feature","geometry":{"type":"Point","coordinates":[73.77,18.44]},"properties":{"id":"pune-municipal-corporation-source-1","utilityId":"pune-municipal-corporation","utilityName":"Pune Municipal Corporation Water Supply","name":"Khadakwasla Dam","sourceType":"surface","sourceKind":"reservoir","iconId":"water-utility","sourceIndex":1}},{"type":"Feature","geometry":{"type":"Point","coordinates":[73.85,18.52]},"properties":{"id":"pune-municipal-corporation-source-2","utilityId":"pune-municipal-corporation","utilityName":"Pune Municipal Corporation Water Supply","name":"Mutha River","sourceType":"surface","sourceKind":"river","iconId":"water-utility","sourceIndex":2}},{"type":"Feature","geometry":{"type":"Point","coordinates":[103.8,25.48]},"properties":{"id":"qujing-water-supply-source-2","utilityId":"qujing-water-supply","utilityName":"Qujing Water Supply Company","name":"Nanpan River","sourceType":"surface","sourceKind":"river","iconId":"water-utility","sourceIndex":2}},{"type":"Feature","geometry":{"type":"Point","coordinates":[103.84,25.71]},"properties":{"id":"qujing-water-supply-source-3","utilityId":"qujing-water-supply","utilityName":"Qujing Water Supply Company","name":"Qujing groundwater wells","sourceType":"groundwater","sourceKind":"wellfield","iconId":"water-utility","sourceIndex":3}},{"type":"Feature","geometry":{"type":"Point","coordinates":[103.75,25.5]},"properties":{"id":"qujing-water-supply-source-1","utilityId":"qujing-water-supply","utilityName":"Qujing Water Supply Company","name":"Xiaoxiang Reservoir","sourceType":"surface","sourceKind":"reservoir","iconId":"water-utility","sourceIndex":1}},{"type":"Feature","geometry":{"type":"Point","coordinates":[25.6,-10.77]},"properties":{"id":"regideso-lualaba-source-3","utilityId":"regideso-lualaba","utilityName":"REGIDESO","name":"Lualaba groundwater wells","sourceType":"groundwater","sourceKind":"wellfield","iconId":"water-utility","sourceIndex":3}},{"type":"Feature","geometry":{"type":"Point","coordinates":[25.47,-10.69]},"properties":{"id":"regideso-lualaba-source-2","utilityId":"regideso-lualaba","utilityName":"REGIDESO","name":"Lualaba River","sourceType":"surface","sourceKind":"river","iconId":"water-utility","sourceIndex":2}},{"type":"Feature","geometry":{"type":"Point","coordinates":[25.43,-10.75]},"properties":{"id":"regideso-lualaba-source-1","utilityId":"regideso-lualaba","utilityName":"REGIDESO","name":"Luilu River","sourceType":"surface","sourceKind":"river","iconId":"water-utility","sourceIndex":1}},{"type":"Feature","geometry":{"type":"Point","coordinates":[-46.25,-23.55]},"properties":{"id":"sabesp-sao-paulo-source-1","utilityId":"sabesp-sao-paulo","utilityName":"SABESP","name":"Alto Tiete System","sourceType":"surface","sourceKind":"reservoir system","iconId":"water-utility","sourceIndex":1}},{"type":"Feature","geometry":{"type":"Point","coordinates":[-46.66,-23.34]},"properties":{"id":"sabesp-sao-paulo-source-2","utilityId":"sabesp-sao-paulo","utilityName":"SABESP","name":"Cantareira System","sourceType":"surface","sourceKind":"reservoir system","iconId":"water-utility","sourceIndex":2}},{"type":"Feature","geometry":{"type":"Point","coordinates":[-46.83,-23.4]},"properties":{"id":"sabesp-sao-paulo-source-3","utilityId":"sabesp-sao-paulo","utilityName":"SABESP","name":"Tietê River corridor","sourceType":"surface","sourceKind":"river","iconId":"water-utility","sourceIndex":3}},{"type":"Feature","geometry":{"type":"Point","coordinates":[-48.17,-13.45]},"properties":{"id":"saneago-goias-source-1","utilityId":"saneago-goias","utilityName":"Saneago","name":"Cana Brava Reservoir","sourceType":"surface","sourceKind":"reservoir","iconId":"water-utility","sourceIndex":1}},{"type":"Feature","geometry":{"type":"Point","coordinates":[-48.5,-13.5]},"properties":{"id":"saneago-goias-source-3","utilityId":"saneago-goias","utilityName":"Saneago","name":"Goias groundwater wells","sourceType":"groundwater","sourceKind":"wellfield","iconId":"water-utility","sourceIndex":3}},{"type":"Feature","geometry":{"type":"Point","coordinates":[-48.3,-14]},"properties":{"id":"saneago-goias-source-2","utilityId":"saneago-goias","utilityName":"Saneago","name":"Serra da Mesa Reservoir","sourceType":"surface","sourceKind":"reservoir","iconId":"water-utility","sourceIndex":2}},{"type":"Feature","geometry":{"type":"Point","coordinates":[-99.56,24.92]},"properties":{"id":"sadm-monterrey-source-2","utilityId":"sadm-monterrey","utilityName":"Servicios de Agua y Drenaje de Monterrey","name":"Cerro Prieto Reservoir","sourceType":"surface","sourceKind":"reservoir","iconId":"water-utility","sourceIndex":2}},{"type":"Feature","geometry":{"type":"Point","coordinates":[-100.08,25.43]},"properties":{"id":"sadm-monterrey-source-1","utilityId":"sadm-monterrey","utilityName":"Servicios de Agua y Drenaje de Monterrey","name":"La Boca Reservoir","sourceType":"surface","sourceKind":"reservoir","iconId":"water-utility","sourceIndex":1}},{"type":"Feature","geometry":{"type":"Point","coordinates":[-100.31,25.68]},"properties":{"id":"sadm-monterrey-source-3","utilityId":"sadm-monterrey","utilityName":"Servicios de Agua y Drenaje de Monterrey","name":"Monterrey wellfields","sourceType":"groundwater","sourceKind":"wellfield","iconId":"water-utility","sourceIndex":3}},{"type":"Feature","geometry":{"type":"Point","coordinates":[-1.67,53.1]},"properties":{"id":"severn-trent-water-source-1","utilityId":"severn-trent-water","utilityName":"Severn Trent Water","name":"Derwent Valley reservoirs","sourceType":"surface","sourceKind":"reservoir system","iconId":"water-utility","sourceIndex":1}},{"type":"Feature","geometry":{"type":"Point","coordinates":[-1.48,52.92]},"properties":{"id":"severn-trent-water-source-2","utilityId":"severn-trent-water","utilityName":"Severn Trent Water","name":"River Derwent","sourceType":"surface","sourceKind":"river","iconId":"water-utility","sourceIndex":2}},{"type":"Feature","geometry":{"type":"Point","coordinates":[-1.16,53.32]},"properties":{"id":"severn-trent-water-source-3","utilityId":"severn-trent-water","utilityName":"Severn Trent Water","name":"Sherwood Sandstone aquifer","sourceType":"groundwater","sourceKind":"aquifer","iconId":"water-utility","sourceIndex":3}},{"type":"Feature","geometry":{"type":"Point","coordinates":[121.42,31.38]},"properties":{"id":"shanghai-chengtou-water-source-3","utilityId":"shanghai-chengtou-water","utilityName":"Shanghai Chengtou Water Group","name":"Chenhang Reservoir","sourceType":"surface","sourceKind":"reservoir","iconId":"water-utility","sourceIndex":3}},{"type":"Feature","geometry":{"type":"Point","coordinates":[121.49,31.22]},"properties":{"id":"shanghai-chengtou-water-source-2","utilityId":"shanghai-chengtou-water","utilityName":"Shanghai Chengtou Water Group","name":"Huangpu River","sourceType":"surface","sourceKind":"river","iconId":"water-utility","sourceIndex":2}},{"type":"Feature","geometry":{"type":"Point","coordinates":[121.63,31.49]},"properties":{"id":"shanghai-chengtou-water-source-1","utilityId":"shanghai-chengtou-water","utilityName":"Shanghai Chengtou Water Group","name":"Qingcaosha Reservoir","sourceType":"surface","sourceKind":"reservoir","iconId":"water-utility","sourceIndex":1}},{"type":"Feature","geometry":{"type":"Point","coordinates":[31.8,30.6]},"properties":{"id":"sharkia-water-company-source-1","utilityId":"sharkia-water-company","utilityName":"Sharkia Water and Wastewater Company","name":"Ismailia Canal","sourceType":"surface","sourceKind":"canal","iconId":"water-utility","sourceIndex":1}},{"type":"Feature","geometry":{"type":"Point","coordinates":[31.63,30.73]},"properties":{"id":"sharkia-water-company-source-2","utilityId":"sharkia-water-company","utilityName":"Sharkia Water and Wastewater Company","name":"Nile branch canals","sourceType":"surface","sourceKind":"canal","iconId":"water-utility","sourceIndex":2}},{"type":"Feature","geometry":{"type":"Point","coordinates":[31.92,30.67]},"properties":{"id":"sharkia-water-company-source-3","utilityId":"sharkia-water-company","utilityName":"Sharkia Water and Wastewater Company","name":"Sharqia groundwater wells","sourceType":"groundwater","sourceKind":"wellfield","iconId":"water-utility","sourceIndex":3}},{"type":"Feature","geometry":{"type":"Point","coordinates":[-101.25,21.02]},"properties":{"id":"simapag-guanajuato-source-1","utilityId":"simapag-guanajuato","utilityName":"SIMAPAG","name":"Guanajuato aquifer","sourceType":"groundwater","sourceKind":"aquifer","iconId":"water-utility","sourceIndex":1}},{"type":"Feature","geometry":{"type":"Point","coordinates":[-101.14,20.97]},"properties":{"id":"simapag-guanajuato-source-2","utilityId":"simapag-guanajuato","utilityName":"SIMAPAG","name":"La Purisima Reservoir","sourceType":"surface","sourceKind":"reservoir","iconId":"water-utility","sourceIndex":2}},{"type":"Feature","geometry":{"type":"Point","coordinates":[-65.36,-26.9]},"properties":{"id":"sat-tucuman-source-2","utilityId":"sat-tucuman","utilityName":"Sociedad Aguas del Tucuman","name":"Aconquija foothill groundwater","sourceType":"groundwater","sourceKind":"aquifer","iconId":"water-utility","sourceIndex":2}},{"type":"Feature","geometry":{"type":"Point","coordinates":[-65.2,-26.85]},"properties":{"id":"sat-tucuman-source-1","utilityId":"sat-tucuman","utilityName":"Sociedad Aguas del Tucuman","name":"Sali River","sourceType":"surface","sourceKind":"river","iconId":"water-utility","sourceIndex":1}},{"type":"Feature","geometry":{"type":"Point","coordinates":[5.4,43.3]},"properties":{"id":"eau-de-marseille-source-1","utilityId":"eau-de-marseille","utilityName":"Societe Eau de Marseille Metropole","name":"Canal de Marseille","sourceType":"surface","sourceKind":"canal","iconId":"water-utility","sourceIndex":1}},{"type":"Feature","geometry":{"type":"Point","coordinates":[5.5,43.7]},"properties":{"id":"eau-de-marseille-source-2","utilityId":"eau-de-marseille","utilityName":"Societe Eau de Marseille Metropole","name":"Durance River","sourceType":"surface","sourceKind":"river","iconId":"water-utility","sourceIndex":2}},{"type":"Feature","geometry":{"type":"Point","coordinates":[6.15,43.75]},"properties":{"id":"eau-de-marseille-source-3","utilityId":"eau-de-marseille","utilityName":"Societe Eau de Marseille Metropole","name":"Verdon River system","sourceType":"surface","sourceKind":"river","iconId":"water-utility","sourceIndex":3}},{"type":"Feature","geometry":{"type":"Point","coordinates":[1.5,47.62]},"properties":{"id":"suez-loir-et-cher-source-2","utilityId":"suez-loir-et-cher","utilityName":"SUEZ Eau France","name":"Chambord groundwater abstraction","sourceType":"groundwater","sourceKind":"wellfield","iconId":"water-utility","sourceIndex":2}},{"type":"Feature","geometry":{"type":"Point","coordinates":[1.44,47.59]},"properties":{"id":"suez-loir-et-cher-source-1","utilityId":"suez-loir-et-cher","utilityName":"SUEZ Eau France","name":"Loire River","sourceType":"surface","sourceKind":"river","iconId":"water-utility","sourceIndex":1}},{"type":"Feature","geometry":{"type":"Point","coordinates":[25.16,-33.2]},"properties":{"id":"sundays-river-valley-municipality-source-2","utilityId":"sundays-river-valley-municipality","utilityName":"Sundays River Valley Municipality Water Services","name":"Darlington Dam","sourceType":"surface","sourceKind":"reservoir","iconId":"water-utility","sourceIndex":2}},{"type":"Feature","geometry":{"type":"Point","coordinates":[25.28,-33.39]},"properties":{"id":"sundays-river-valley-municipality-source-3","utilityId":"sundays-river-valley-municipality","utilityName":"Sundays River Valley Municipality Water Services","name":"Kirkwood groundwater wells","sourceType":"groundwater","sourceKind":"wellfield","iconId":"water-utility","sourceIndex":3}},{"type":"Feature","geometry":{"type":"Point","coordinates":[25.59,-33.39]},"properties":{"id":"sundays-river-valley-municipality-source-1","utilityId":"sundays-river-valley-municipality","utilityName":"Sundays River Valley Municipality Water Services","name":"Sundays River","sourceType":"surface","sourceKind":"river","iconId":"water-utility","sourceIndex":1}},{"type":"Feature","geometry":{"type":"Point","coordinates":[3.82,50.72]},"properties":{"id":"swde-wallonia-source-2","utilityId":"swde-wallonia","utilityName":"SWDE","name":"Dendre River","sourceType":"surface","sourceKind":"river","iconId":"water-utility","sourceIndex":2}},{"type":"Feature","geometry":{"type":"Point","coordinates":[3.84,50.72]},"properties":{"id":"swde-wallonia-source-1","utilityId":"swde-wallonia","utilityName":"SWDE","name":"Walloon groundwater abstractions","sourceType":"groundwater","sourceKind":"wellfield","iconId":"water-utility","sourceIndex":1}},{"type":"Feature","geometry":{"type":"Point","coordinates":[-0.12,51.5]},"properties":{"id":"thames-water-london-source-3","utilityId":"thames-water-london","utilityName":"Thames Water","name":"London chalk aquifer","sourceType":"groundwater","sourceKind":"aquifer","iconId":"water-utility","sourceIndex":3}},{"type":"Feature","geometry":{"type":"Point","coordinates":[-0.02,51.68]},"properties":{"id":"thames-water-london-source-2","utilityId":"thames-water-london","utilityName":"Thames Water","name":"River Lee","sourceType":"surface","sourceKind":"river","iconId":"water-utility","sourceIndex":2}},{"type":"Feature","geometry":{"type":"Point","coordinates":[-0.46,51.48]},"properties":{"id":"thames-water-london-source-1","utilityId":"thames-water-london","utilityName":"Thames Water","name":"River Thames","sourceType":"surface","sourceKind":"river","iconId":"water-utility","sourceIndex":1}},{"type":"Feature","geometry":{"type":"Point","coordinates":[-120.16,39.17]},"properties":{"id":"truckee-meadows-water-authority-source-3","utilityId":"truckee-meadows-water-authority","utilityName":"Truckee Meadows Water Authority","name":"Lake Tahoe outlet","sourceType":"surface","sourceKind":"lake outlet","iconId":"water-utility","sourceIndex":3}},{"type":"Feature","geometry":{"type":"Point","coordinates":[-119.75,39.56]},"properties":{"id":"truckee-meadows-water-authority-source-2","utilityId":"truckee-meadows-water-authority","utilityName":"Truckee Meadows Water Authority","name":"Truckee Meadows groundwater wells","sourceType":"groundwater","sourceKind":"wellfield","iconId":"water-utility","sourceIndex":2}},{"type":"Feature","geometry":{"type":"Point","coordinates":[-119.81,39.53]},"properties":{"id":"truckee-meadows-water-authority-source-1","utilityId":"truckee-meadows-water-authority","utilityName":"Truckee Meadows Water Authority","name":"Truckee River","sourceType":"surface","sourceKind":"river","iconId":"water-utility","sourceIndex":1}},{"type":"Feature","geometry":{"type":"Point","coordinates":[79.74,11.64]},"properties":{"id":"twad-cuddalore-source-3","utilityId":"twad-cuddalore","utilityName":"TWAD Board / Cuddalore Municipality","name":"Cuddalore groundwater wells","sourceType":"groundwater","sourceKind":"wellfield","iconId":"water-utility","sourceIndex":3}},{"type":"Feature","geometry":{"type":"Point","coordinates":[79.75,11.75]},"properties":{"id":"twad-cuddalore-source-2","utilityId":"twad-cuddalore","utilityName":"TWAD Board / Cuddalore Municipality","name":"Kedilam River","sourceType":"surface","sourceKind":"river","iconId":"water-utility","sourceIndex":2}},{"type":"Feature","geometry":{"type":"Point","coordinates":[79.52,11.23]},"properties":{"id":"twad-cuddalore-source-1","utilityId":"twad-cuddalore","utilityName":"TWAD Board / Cuddalore Municipality","name":"Veeranam Lake","sourceType":"surface","sourceKind":"lake","iconId":"water-utility","sourceIndex":1}},{"type":"Feature","geometry":{"type":"Point","coordinates":[-6.65,53.65]},"properties":{"id":"uisce-eireann-meath-source-2","utilityId":"uisce-eireann-meath","utilityName":"Uisce Eireann","name":"Meath groundwater abstraction","sourceType":"groundwater","sourceKind":"wellfield","iconId":"water-utility","sourceIndex":2}},{"type":"Feature","geometry":{"type":"Point","coordinates":[-6.55,53.7]},"properties":{"id":"uisce-eireann-meath-source-1","utilityId":"uisce-eireann-meath","utilityName":"Uisce Eireann","name":"River Boyne","sourceType":"surface","sourceKind":"river","iconId":"water-utility","sourceIndex":1}},{"type":"Feature","geometry":{"type":"Point","coordinates":[79.45,29.05]},"properties":{"id":"uttarakhand-jal-sansthan-rudrapur-source-2","utilityId":"uttarakhand-jal-sansthan-rudrapur","utilityName":"Uttarakhand Jal Sansthan","name":"Kosi-Ganga canal system","sourceType":"surface","sourceKind":"canal","iconId":"water-utility","sourceIndex":2}},{"type":"Feature","geometry":{"type":"Point","coordinates":[79.42,29.01]},"properties":{"id":"uttarakhand-jal-sansthan-rudrapur-source-1","utilityId":"uttarakhand-jal-sansthan-rudrapur","utilityName":"Uttarakhand Jal Sansthan","name":"Rudrapur groundwater wells","sourceType":"groundwater","sourceKind":"wellfield","iconId":"water-utility","sourceIndex":1}},{"type":"Feature","geometry":{"type":"Point","coordinates":[-88.27,41.47]},"properties":{"id":"village-of-minooka-water-source-2","utilityId":"village-of-minooka-water","utilityName":"Village of Minooka Water Department","name":"Aux Sable Creek","sourceType":"surface","sourceKind":"creek","iconId":"water-utility","sourceIndex":2}},{"type":"Feature","geometry":{"type":"Point","coordinates":[-88.26,41.46]},"properties":{"id":"village-of-minooka-water-source-1","utilityId":"village-of-minooka-water","utilityName":"Village of Minooka Water Department","name":"Minooka deep wells","sourceType":"groundwater","sourceKind":"wellfield","iconId":"water-utility","sourceIndex":1}},{"type":"Feature","geometry":{"type":"Point","coordinates":[141.6,-38.35]},"properties":{"id":"wannon-water-portland-source-1","utilityId":"wannon-water-portland","utilityName":"Wannon Water","name":"Dilwyn aquifer","sourceType":"groundwater","sourceKind":"aquifer","iconId":"water-utility","sourceIndex":1}},{"type":"Feature","geometry":{"type":"Point","coordinates":[141.61,-38.32]},"properties":{"id":"wannon-water-portland-source-2","utilityId":"wannon-water-portland","utilityName":"Wannon Water","name":"Surry River","sourceType":"surface","sourceKind":"river","iconId":"water-utility","sourceIndex":2}},{"type":"Feature","geometry":{"type":"Point","coordinates":[115.86,-31.75]},"properties":{"id":"water-corporation-western-australia-source-1","utilityId":"water-corporation-western-australia","utilityName":"Water Corporation","name":"Gnangara groundwater system","sourceType":"groundwater","sourceKind":"aquifer","iconId":"water-utility","sourceIndex":1}},{"type":"Feature","geometry":{"type":"Point","coordinates":[116.02,-32.56]},"properties":{"id":"water-corporation-western-australia-source-2","utilityId":"water-corporation-western-australia","utilityName":"Water Corporation","name":"South Dandalup Dam","sourceType":"surface","sourceKind":"reservoir","iconId":"water-utility","sourceIndex":2}},{"type":"Feature","geometry":{"type":"Point","coordinates":[115.8,-32.2]},"properties":{"id":"water-corporation-western-australia-source-3","utilityId":"water-corporation-western-australia","utilityName":"Water Corporation","name":"Yarragadee aquifer","sourceType":"groundwater","sourceKind":"aquifer","iconId":"water-utility","sourceIndex":3}},{"type":"Feature","geometry":{"type":"Point","coordinates":[-80.36,36.25]},"properties":{"id":"winston-salem-forsyth-utilities-source-3","utilityId":"winston-salem-forsyth-utilities","utilityName":"Winston-Salem/Forsyth County Utilities","name":"Forsyth County groundwater wells","sourceType":"groundwater","sourceKind":"wellfield","iconId":"water-utility","sourceIndex":3}},{"type":"Feature","geometry":{"type":"Point","coordinates":[-80.19,36.08]},"properties":{"id":"winston-salem-forsyth-utilities-source-2","utilityId":"winston-salem-forsyth-utilities","utilityName":"Winston-Salem/Forsyth County Utilities","name":"Salem Lake","sourceType":"surface","sourceKind":"reservoir","iconId":"water-utility","sourceIndex":2}},{"type":"Feature","geometry":{"type":"Point","coordinates":[-80.38,36.1]},"properties":{"id":"winston-salem-forsyth-utilities-source-1","utilityId":"winston-salem-forsyth-utilities","utilityName":"Winston-Salem/Forsyth County Utilities","name":"Yadkin River","sourceType":"surface","sourceKind":"river","iconId":"water-utility","sourceIndex":1}}]}